[
  {
    "nombre":"Bastero Kulturgunea",
    "url":"https://www.filmaffinity.com/es/theater-showtimes.php?id=647",
    "latitud":"43.21789947017307",
    "longitud":"-2.0209647648942055"
  },
  {
    "nombre":"Amaia Udal Antzokia",
    "url":"https://www.filmaffinity.com/es/theater-showtimes.php?id=754",
    "latitud":"43.06674474179957",
    "longitud":"-2.486898729989195"
  },
  {
    "nombre":"Baztartxo Antzokia",
    "url":"https://www.filmaffinity.com/es/theater-showtimes.php?id=753",
    "latitud":"43.177850956960135",
    "longitud":"-2.314274422568686"
  },
  {
    "nombre":"Usurbe Antzokia",
    "url":"https://www.filmaffinity.com/es/theater-showtimes.php?id=641",
    "latitud":"43.047368919494204",
    "longitud":"-2.1942870783939643"
  },
  {
    "nombre":"Cines Antiguo Berri",
    "url":"https://www.filmaffinity.com/es/theater-showtimes.php?id=431",
    "latitud":"43.31241817608024",
    "longitud":"-2.005130936053235"
  },
  {
    "nombre":"Cines Príncipe",
    "url":"https://www.filmaffinity.com/es/theater-showtimes.php?id=408",
    "latitud":"43.32532014955993",
    "longitud":"-1.98369034954385"
  },
  {
    "nombre":"Cines Trueba",
    "url":"https://www.filmaffinity.com/es/theater-showtimes.php?id=436",
    "latitud":"43.32246323958202",
    "longitud":"-1.9741784458364922"
  },
  {
    "nombre":"Garbera Cinesa LUXE",
    "url":"https://www.filmaffinity.com/es/theater-showtimes.php?id=1272",
    "latitud":"43.309840981376944",
    "longitud":"-1.9427876918721285"
  },
  {
    "nombre":"Coliseo Antzokia Eibar",
    "url":"https://www.filmaffinity.com/es/theater-showtimes.php?id=806",
    "latitud":"43.18603902158322",
    "longitud":"-2.4668343574808533"
  },
  {
    "nombre":"Herriko Antzokia",
    "url":"https://www.filmaffinity.com/es/theater-showtimes.php?id=807",
    "latitud":"43.21696845914913",
    "longitud":"-2.409918661186789"
  },
  {
    "nombre":"Itsas Etxea Auditoriuma",
    "url":"https://www.filmaffinity.com/es/theater-showtimes.php?id=808",
    "latitud":"43.36770826451416",
    "longitud":"-1.7920296616943183"
  },
  {
    "nombre":"Ocine Mendibil",
    "url":"https://www.filmaffinity.com/es/theater-showtimes.php?id=447",
    "latitud":"43.340794408959425",
    "longitud":"-1.7910003072155474"
  },
  {
    "nombre":"Manuel Lekuona Kultur Etxea",
    "url":"https://www.filmaffinity.com/es/theater-showtimes.php?id=811",
    "latitud":"43.27052621433659",
    "longitud":"-2.0223666514003207"
  },
  {
    "nombre":"Oñatiko Zinea",
    "url":"https://www.filmaffinity.com/es/theater-showtimes.php?id=642",
    "latitud":"43.03254054692675",
    "longitud":"-2.4149002458958053"
  },
  {
    "nombre":"Herri Antzokia",
    "url":"https://www.filmaffinity.com/es/theater-showtimes.php?id=645",
    "latitud":"43.05356008632621",
    "longitud":"-2.178243372317327"
  },
  {
    "nombre":"Cines Niessen",
    "url":"https://www.filmaffinity.com/es/theater-showtimes.php?id=537",
    "latitud":"43.31447439773769",
    "longitud":"-1.9007075491312317"
  },
  {
    "nombre":"Leidor Zinema",
    "url":"https://www.filmaffinity.com/es/theater-showtimes.php?id=643",
    "latitud":"43.13564848031033",
    "longitud":"-2.0760257667520636"
  },
  {
    "nombre":"Cinesa Urbil",
    "url":"https://www.filmaffinity.com/es/theater-showtimes.php?id=465",
    "latitud":"43.2763384614186",
    "longitud":"-2.024256430493812"
  },
  {
    "nombre":"Gurea Antzokia",
    "url":"https://www.filmaffinity.com/es/theater-showtimes.php?id=646",
    "latitud":"43.186565939976134",
    "longitud":"-2.0518629222248235"
  },
  {
    "nombre":"Aita Mari Zinema",
    "url":"https://www.filmaffinity.com/es/theater-showtimes.php?id=644",
    "latitud":"43.29600370112834",
    "longitud":"-2.2566355267853746"
  },
  {
    "nombre":"Zelai Arizti",
    "url":"https://www.filmaffinity.com/es/theater-showtimes.php?id=752",
    "latitud":"43.089235387569765",
    "longitud":"-2.314317693736876"
  }
]
